[
  {
    "name": "Test 动漫店·北京海淀",
    "province": "北京市",
    "city": "北京市",
    "district": "海淀区",
    "address": "五道口动漫城",
    "lat": 39.990464,
    "lng": 116.326443,
    "images": [],
    "likes": 0,
    "submitter": "测试用户"
  },
  
  {
    "name": "深圳大中华bit次元",
    "province": "广东省",
    "city": "深圳市",
    "district": "福田区",
    "address": "深圳市福田区福华一路1号G层(会展中心地铁站A口步行100米)",
    "lat": 22.536022,
    "lng": 114.062265,
    "images": ["images/深圳大中华bit次元1.jpg", "images/深圳大中华bit次元2.jpg"],
    "likes": 0,
    "submitter": "doya16"
  },

  {
    "name": "深圳湾奇谷米kigurumi",
    "province": "广东省",
    "city": "深圳市",
    "district": "福田区",
    "address": "滨海大道2008号欢乐海岸曲水湾7A、7B栋",
    "lat": 22.524242,
    "lng": 113.990944,
    "images": ["images/深圳奇谷米1.jpg", "images/深深圳奇谷米2.jpg"],
    "likes": 0,
    "submitter": "doya16"
  },

  {
    "name": "上海百联ZX",
    "province": "上海市",
    "city": "上海市",
    "district": "杨浦区",
    "address": "南京东路340号(南京东路地铁站1号口步行70米)",
    "lat": 31.237161,
    "lng": 121.483254,
    "images": ["images/上海百联ZX1.png", "images/上海百联ZX2.webp"],
    "likes": 0,
    "submitter": "doya16"
  }

]

